{
  "port": 4547,
  "protocol": "http",
  "stubs": [
    {
      "predicates": [
        {
          "equals": {
            "path": "/test"
          }
        }
      ],
      "responses": [
        {
          "is": {
            "statusCode": 200,
            "headers": {
              "Connection": "keep-alive",
              "Content-Type": "application/json; charset=utf-8",
              "Content-Length": "108",
              "X-Powered-By": "Express",
              "access-control-allow-origin": "",
              "x-dns-prefetch-control": "off",
              "x-frame-options":"SAMEORIGIN",
              "strict-transport-security": "max-age=15552000; includeSubDomains",
              "x-download-options": "noopen",
              "x-content-type-options": "nosniff",
              "x-xss-protection": "1; mode=block",
              "vary": "Origin",
              "x-request-id": "931611e8-c6a6-4e45-ae72-cd626ba46325",
              "access-control-allow-headers": "origin,channel,lead, x-requested-with, accept,Authorization,x-api-key, Cookie, Content-Type, storecode, ldap, x-request-id",
              "access-control-max-age": "60",
              "access-control-allow-methods": "GET, PUT, POST, PATCH, DELETE",
              "access-control-allow-credentials": "true",
              "x-apigee-message-id": "truapgmsg2-13287-26097443-4",
              "x-api-key": "rGdOlHn7OeG7ZVegJGToUiatSsGttgcm"
            },
            "body": {
              "coreMgwVersion": "-",
              "environment": "development",
              "legoPoliciesVersion": "0.4.8-develop-4",
              "version": "3.0.2"
            }
          }
        }
      ]
    },

    {
      "predicates": [
        {
          "equals": {
            "path": "/shops"
          }
        }
      ],
      "responses": [
        {
          "is": {
            "statusCode": 200,
            "body": [{"id":2,"name":"Мытищи","address":"Московская область, г.Мытищи, Осташковское шоссе, д.1.","phone":"+7 (499) 929-84-02","regionId":34,"regionName":"Москва и область","lat":55.899215,"long":37.668593,"timezone":"+03:00","cityName":"Мытищи","regionKladr":"5000000000000","cityKladr":"5001900100051","buCode":9,"buName":"Россия","availableFeatures":{"ordersV2":true,"isWave":true}},{"id":3,"name":"Красногорск","address":"МКАД 66 километр (внешн.)","phone":"+7(495) 961-02-20","regionId":34,"regionName":"Москва и область","lat":55.811032,"long":37.386869,"timezone":"+03:00","cityName":"Красногорск","regionKladr":"5000000000000","cityKladr":"7700000000000","buCode":9,"buName":"Россия","availableFeatures":{"lsrm":true,"em":true,"ordersV2":true,"isWave":true}},{"id":4,"name":"Алтуфьево","address":"г.Мытищи, МКАД 84 км (внешн.)","phone":"+7(495) 641-25-40","regionId":34,"regionName":"Москва и область","lat":55.915175,"long":37.572879,"timezone":"+03:00","cityName":"Мытищи","regionKladr":"5000000000000","cityKladr":"7700000000000","buCode":9,"buName":"Россия","availableFeatures":{"ordersV2":true,"isWave":true}},{"id":5,"name":"Химки","address":"Московская область, г. Химки, ул. 9 Мая, д. 20, к.1","phone":"+7(495) 660-01-30","regionId":34,"regionName":"Москва и область","lat":55.903448,"long":37.415802,"timezone":"+03:00","cityName":"Химки","regionKladr":"5000000000000","cityKladr":"5000003000000","buCode":9,"buName":"Россия","availableFeatures":{"lsrm":true,"em":true,"ordersV2":true,"editDateOfGiveaway":true,"isWave":true}},{"id":6,"name":"Сокольники","address":"г. Москва, ул. Красносельская, вл. 3А","phone":"+7(495) 660-96-70","regionId":34,"regionName":"Москва и область","lat":55.786118,"long":37.664796,"timezone":"+03:00","cityName":"Москва","regionKladr":"7700000000000","cityKladr":"7700000000000","buCode":9,"buName":"Россия","availableFeatures":{"ordersV2":true,"rdStock":true,"isWave":true}},{"id":7,"name":"Ростов на Дону 1","address":"Ростовская обл., Аксайский р-н, г.Аксай, Аксайский пр-т, 23","phone":"+7(863) 204-03-60","regionId":504,"regionName":"Ростов-на-Дону","lat":47.29192,"long":39.846459,"timezone":"+03:00","cityName":"Аксай","regionKladr":"6100000000000","cityKladr":"6100300100000","buCode":9,"buName":"Россия","availableFeatures":{"lsrm":true,"em":true,"ordersV2":true,"rdStock":true,"isWave":true}},{"id":8,"name":"Краснодар 1","address":"г.Краснодар, ул.Новороссийская, д.234/1","phone":"+7(861) 210-93-50","regionId":505,"regionName":"Краснодар","lat":45.036458,"long":39.052418,"timezone":"+03:00","cityName":"Краснодар","regionKladr":"2300000000000","cityKladr":"2300000100000","buCode":9,"buName":"Россия","availableFeatures":{"ordersV2":true,"isWave":true}},{"id":9,"name":"Самара","address":"г. Самара, ул. Дыбенко, д. 30","phone":"+7(846) 273-81-90","regionId":507,"regionName":"Самара","lat":53.207189,"long":50.194657,"timezone":"+04:00","cityName":"Самара","regionKladr":"6300000000000","cityKladr":"6300000100000","buCode":9,"buName":"Россия","availableFeatures":{"ordersV2":true,"rdStock":true,"isWave":true}},{"id":10,"name":"СПБ 1 (Коллонтай)","address":"г. Санкт-Петербург, ул. Коллонтай, д. 3","phone":"+7(812) 313-93-00","regionId":506,"regionName":"Санкт-Петербург","lat":59.911022,"long":30.446399,"timezone":"+03:00","cityName":"Санкт-Петербург","regionKladr":"4700000000000","cityKladr":"7800000000000","buCode":9,"buName":"Россия","availableFeatures":{"ordersV2":true,"rdStock":true,"deliveryIntegration":true,"lsrm":true,"em":true,"isWave":true}},{"id":11,"name":"Испытателей","address":"г. Санкт-Петербург, проспект Испытателей, д. 5, корп. 2, лит. А","phone":"+7(812) 493-23-83","regionId":506,"regionName":"Санкт-Петербург","lat":60.003777,"long":30.301483,"timezone":"+03:00","cityName":"Санкт-Петербург","regionKladr":"7800000000000","cityKladr":"7800000000000","buCode":9,"buName":"Россия","availableFeatures":{"ordersV2":true,"rdStock":true,"isWave":true,"isSavePickingPosition":true}},{"id":12,"name":"Новосибирск 1 (Ватутина)(Мега)","address":"г.Новосибирск, ул. Ватутина, 107","phone":"+7(383) 230-12-40","regionId":508,"regionName":"Новосибирск","lat":54.961934,"long":82.937973,"timezone":"+07:00","cityName":"Новосибирск","regionKladr":"5400000000000","cityKladr":"5400000100000","buCode":9,"buName":"Россия","availableFeatures":{"ordersV2":true,"isWave":true}},{"id":13,"name":"Самара-2 (Мега)","address":"г. Самара, Московское (24 км) ш., 5","phone":"+7(846) 273-81-58","regionId":507,"regionName":"Самара","lat":53.325741,"long":50.303254,"timezone":"+04:00","cityName":"Самара","regionKladr":"6300000000000","cityKladr":"6300000100000","buCode":9,"buName":"Россия","availableFeatures":{"ordersV2":true,"isWave":true}},{"id":14,"name":"Ростов на Дону 2","address":"Ростовская область, Аксайский р-н, п.Верхнетемерницкий, ул.Обсерваторная, д. 15","phone":"+7(863) 204-06-46","regionId":504,"regionName":"Ростов-на-Дону","lat":47.309731,"long":39.726206,"timezone":"+03:00","cityName":"п.Верхнетемерницкий","regionKladr":"6100000000000","cityKladr":"6100300050300","buCode":9,"buName":"Россия","availableFeatures":{"ordersV2":true,"isWave":true}},{"id":16,"name":"Омск","address":"г.Омск, бульвар Архитекторов, д.35/1","phone":"+7(3812) 35-60-20","regionId":509,"regionName":"Омск","lat":54.970196,"long":73.283189,"timezone":"+06:00","cityName":"Омск","regionKladr":"5500000000000","cityKladr":"5500000100000","buCode":9,"buName":"Россия","availableFeatures":{"ordersV2":true,"isWave":true}},{"id":17,"name":"Уфа","address":"г.Уфа,  ул.Рубежная, д. 172","phone":"+7(347) 226-72-44","regionId":511,"regionName":"Уфа","lat":54.670956,"long":55.928508,"timezone":"+05:00","cityName":"Уфа","regionKladr":"0200000000000","cityKladr":"0200000100000","buCode":9,"buName":"Россия","availableFeatures":{"ordersV2":true,"isWave":true}},{"id":18,"name":"Тверь","address":"г.Тверь, Октябрьский проспект, д.105","phone":"+7(4822) 62-03-80","regionId":1437,"regionName":"Тверь","lat":56.813663,"long":35.882473,"timezone":"+03:00","cityName":"Тверь","regionKladr":"6900000000000","cityKladr":"6900000100000","buCode":9,"buName":"Россия","availableFeatures":{"lsrm":true,"em":true,"ordersV2":true,"isWave":true}},{"id":19,"name":"Рязань","address":"Рязанская обл., Рязанский район, с. Дядьково, д. 4","phone":"+7(4912) 39-23-30","regionId":1447,"regionName":"Рязань","lat":54.621122,"long":39.797697,"timezone":"+03:00","cityName":"Рязань","regionKladr":"6200000000000","cityKladr":"6200000100000","buCode":9,"buName":"Россия","availableFeatures":{"lsrm":true,"em":true,"ordersV2":true,"isWave":true}},{"id":20,"name":"Лефортово","address":"г. Москва, шоссе Энтузиастов, д. 12 к. 2","phone":"+7(495) 775-86-21","regionId":34,"regionName":"Москва и область","lat":55.747278,"long":37.707485,"timezone":"+03:00","cityName":"Москва","regionKladr":"7700000000000","cityKladr":"7700000000000","buCode":9,"buName":"Россия","availableFeatures":{"lsrm":true,"ordersV2":true,"isWave":true}},{"id":21,"name":"Воронеж","address":"Воронежская обл., Рамонский р-н, пос.Солнечный, ул.Парковая д.5","phone":"+7(473) 262-90-30","regionId":510,"regionName":"Воронеж","lat":51.786332,"long":39.200952,"timezone":"+03:00","cityName":"Воронеж","regionKladr":"3600000000000","cityKladr":"3602600006200","buCode":9,"buName":"Россия","availableFeatures":{"ordersV2":true,"isWave":true}},{"id":22,"name":"Климовск","address":"Московская область, г.Подольск, мкр.Климовск, ул.Молодежная, д.15","phone":"+7(495) 544-57-80","regionId":34,"regionName":"Москва и область","lat":55.387527,"long":37.549443,"timezone":"+03:00","cityName":"Подольск","regionKladr":"5000000000000","cityKladr":"5000002400000","buCode":9,"buName":"Россия","availableFeatures":{"lsrm":true,"em":true,"ordersV2":true,"isWave":true}},{"id":23,"name":"Красноярск 1 (Планета)","address":"г.Красноярск, ул. 9 мая, 77","phone":"+7(391) 257-05-45","regionId":539,"regionName":"Красноярск","lat":56.048652,"long":92.90265,"timezone":"+07:00","cityName":"Красноярск","regionKladr":"2400000000000","cityKladr":"2400000100000","buCode":9,"buName":"Россия","availableFeatures":{"lsrm":true,"em":true,"ordersV2":true,"isWave":true}},{"id":24,"name":"Волгоград","address":"г. Волгоград, Университетский проспект, д. 107","phone":"+7(8442) 261-900","regionId":716,"regionName":"Волгоград","lat":48.637053,"long":44.430447,"timezone":"+04:00","cityName":"Волгоград","regionKladr":"3400000000000","cityKladr":"3400000100000","buCode":9,"buName":"Россия","availableFeatures":{"ordersV2":true,"isWave":true}},{"id":25,"name":"Екатеринбург","address":"г.Екатеринбург, пер. Базовый, 45","phone":"+7(343) 311-23-53","regionId":715,"regionName":"Екатеринбург","lat":56.802285,"long":60.649811,"timezone":"+05:00","cityName":"Екатеринбург","regionKladr":"6600000000000","cityKladr":"6600000100000","buCode":9,"buName":"Россия","availableFeatures":{"lsrm":true,"em":true,"ordersV2":true,"isWave":true}},{"id":26,"name":"Рязанский проспект","address":"г.Москва, Рязанский проспект, д.2, корп.3","phone":"+7(495) 664-88-89","regionId":34,"regionName":"Москва и область","lat":55.730358,"long":37.734079,"timezone":"+03:00","cityName":"Москва","regionKladr":"5000000000000","cityKladr":"7700000000000","buCode":9,"buName":"Россия","availableFeatures":{"ordersV2":true,"isWave":true}},{"id":27,"name":"Казань","address":"г. Казань, ул. Фатыха Амирхана, 3","phone":"+7(843) 210-03-50","regionId":1448,"regionName":"Казань","lat":55.817436,"long":49.13149,"timezone":"+03:00","cityName":"Казань","regionKladr":"1600000000000","cityKladr":"1600000100000","buCode":9,"buName":"Россия","availableFeatures":{"lsrm":true,"em":true,"ordersV2":true,"isWave":true}},{"id":28,"name":"Ногинск","address":"Ногинск г., Горьковское ш., 52-й км","phone":"+7(495) 995-24-74","regionId":6255,"regionName":"Ногинск","lat":55.8309673,"long":38.397382,"timezone":"+03:00","cityName":"Ногинск","regionKladr":"5000000000000","cityKladr":"5002100100000","buCode":9,"buName":"Россия","availableFeatures":{"lsrm":true,"em":true,"ordersV2":true,"isWave":true}},{"id":30,"name":"Новосибирск 2 (Фабричный)","address":"г. Новосибирск, переулок Фабричный, д. 11","phone":"+7(383) 211-95-20","regionId":508,"regionName":"Новосибирск","lat":55.02291,"long":82.901757,"timezone":"+07:00","cityName":"Новосибирск","regionKladr":"5400000000000","cityKladr":"5400000100000","buCode":9,"buName":"Россия","availableFeatures":{"ordersV2":true,"isWave":true}},{"id":31,"name":"Тюмень","address":"г. Тюмень, ул. Дмитрия Менделеева, д. 1б","phone":"+7(3452) 52-92-62","regionId":1443,"regionName":"Тюмень","lat":57.117689,"long":65.546326,"timezone":"+05:00","cityName":"Тюмень","regionKladr":"7200000000000","cityKladr":"7200000100000","buCode":9,"buName":"Россия","availableFeatures":{"ordersV2":true,"isWave":true}},{"id":32,"name":"Новая рига","address":"г. Москва, Новорижское шоссе, 22 км, вл. 1, стр. 5","phone":"+7(495) 775-19-50","regionId":34,"regionName":"Москва и область","lat":55.799826,"long":37.299929,"timezone":"+03:00","cityName":"Москва","regionKladr":"5000000000000","cityKladr":"7700000000000","buCode":9,"buName":"Россия","availableFeatures":{"lsrm":true,"em":true,"ordersV2":true,"isWave":true,"deliveryIntegration":true}},{"id":33,"name":"Уфа 2","address":"г.Уфа, ул.Энтузиастов, д.22","phone":"+7(347) 226-78-60","regionId":511,"regionName":"Уфа","lat":54.760158,"long":56.038992,"timezone":"+05:00","cityName":"Уфа","regionKladr":"0200000000000","cityKladr":"0200000100000","buCode":9,"buName":"Россия","availableFeatures":{"ordersV2":true,"isWave":true}},{"id":34,"name":"Самара-3 (Южное шоссе)","address":"г. Самара, Южное шоссе, д. 3а","phone":"+7(846) 379-14-25","regionId":507,"regionName":"Самара","lat":53.142835,"long":50.176915,"timezone":"+04:00","cityName":"Самара","regionKladr":"6300000000000","cityKladr":"6300000100000","buCode":9,"buName":"Россия","availableFeatures":{"lsrm":true,"em":true,"ordersV2":true,"isWave":true}},{"id":35,"name":"Зеленоград","address":"г. Москва,  Солнечногорский р-н, р.п.Ржавки, мкр.№2","phone":"+7(495) 937-52-92","regionId":34,"regionName":"Москва и область","lat":56.000801637,"long":37.253122465,"timezone":"+03:00","cityName":"-","regionKladr":"5000000000000","cityKladr":"7700000200000","buCode":9,"buName":"Россия","availableFeatures":{"lsrm":true,"em":true,"ordersV2":true,"priceTagPrint":true,"editDateOfGiveaway":true,"editDateOfDelivery":true,"isWave":true,"isSavePickingPosition":true,"unpicking":true}},{"id":36,"name":"Барнаул","address":"г.Барнаул, ул.Павловский тракт, д.192 А","phone":"+7(3852) 296-290","regionId":2397,"regionName":"Барнаул","lat":53.350415,"long":83.634661,"timezone":"+07:00","cityName":"Барнаул","regionKladr":"2200000000000","cityKladr":"2200000100000","buCode":9,"buName":"Россия","availableFeatures":{"ordersV2":true,"isWave":true}},{"id":37,"name":"Красноярск 2 (ТЦ Мега)","address":"г.Красноярск, пр. Красноярский рабочий, 27, стр. 146","phone":"+7(391) 270-97-07","regionId":539,"regionName":"Красноярск","lat":56.020437,"long":93.009299,"timezone":"+07:00","cityName":"Красноярск","regionKladr":"2400000000000","cityKladr":"2400000100000","buCode":9,"buName":"Россия","availableFeatures":{"ordersV2":true,"lsrm":true,"em":true,"isWave":true}},{"id":38,"name":"Челябинск","address":"г.Челябинск, Копейское шоссе, 64","phone":"+7(351) 216-13-55","regionId":2149,"regionName":"Челябинск","lat":55.145401,"long":61.451296,"timezone":"+05:00","cityName":"Челябинск","regionKladr":"7400000000000","cityKladr":"7400000100000","buCode":9,"buName":"Россия","availableFeatures":{"ordersV2":true,"isWave":true}},{"id":39,"name":"Набережные Челны","address":"Республика Татарстан, г.Набережные Челны, ул.Машиностроительная, д.29","phone":"+7(8552) 999-765","regionId":2949,"regionName":"Набережные Челны","lat":55.71163,"long":52.402719,"timezone":"+03:00","cityName":"Набережные Челны","regionKladr":"1600000000000","cityKladr":"1600000200000","buCode":9,"buName":"Россия","availableFeatures":{"ordersV2":true,"isWave":true}},{"id":40,"name":"Шолохово","address":"Московская область, деревня Шолохово, Дмитровское шоссе, д. 8, к.1","phone":"+7(495) 933-85-44","regionId":34,"regionName":"Москва и область","lat":56.045991,"long":37.543839,"timezone":"+03:00","cityName":"Мытищи","regionKladr":"5000000000000","cityKladr":"5000004400000","buCode":9,"buName":"Россия","availableFeatures":{"lsrm":true,"em":true,"ordersV2":true,"isWave":true}},{"id":41,"name":"СПБ 3 (Бугры)","address":"г. Санкт-Петербург, проспект Культуры, д. 47","phone":"+7(812) 322-98-68","regionId":506,"regionName":"Санкт-Петербург","lat":60.055874,"long":30.388967,"timezone":"+03:00","cityName":"Санкт-Петербург","regionKladr":"4700000000000","cityKladr":"7800000000000","buCode":9,"buName":"Россия","availableFeatures":{"lsrm":true,"em":true,"ordersV2":true,"isWave":true,"deliveryIntegration":true}},{"id":42,"name":"СПБ 4 (Партизана Германа)","address":"г. Санкт-Петербург, ул. Партизана Германа, д. 2","phone":"+7(812) 449-21-50","regionId":506,"regionName":"Санкт-Петербург","lat":59.843735,"long":30.177026,"timezone":"+03:00","cityName":"Санкт-Петербург","regionKladr":"4700000000000","cityKladr":"7800000000000","buCode":9,"buName":"Россия","availableFeatures":{"ordersV2":true,"isWave":true}},{"id":43,"name":"Каширское шоссе","address":"г. Москва, МКАД 24 километр (внешн.)","phone":"+7(495) 139-25-26","regionId":34,"regionName":"Москва и область","lat":55.589154,"long":37.726762,"timezone":"+03:00","cityName":"Москва","regionKladr":"5000000000000","cityKladr":"7700000000000","buCode":9,"buName":"Россия","availableFeatures":{"lsrm":true,"em":true,"ordersV2":true,"isWave":true}},{"id":44,"name":"Новокузнецк","address":"Кемеровская область, г. Новокузнецк, ул. Хлебозаводская, д. 23","phone":"+7(3843) 91-04-66","regionId":2389,"regionName":"Новокузнецк","lat":53.7771,"long":87.120018,"timezone":"+07:00","cityName":"Новокузнецк","regionKladr":"4200000000000","cityKladr":"4200001200000","buCode":9,"buName":"Россия","availableFeatures":{"ordersV2":true,"isWave":true}},{"id":45,"name":"Косино","address":"г. Москва, ул Святоозерская, д. 1А, ТЦ Косино Парк","phone":"+7(495) 139-25-95","regionId":34,"regionName":"Москва и область","lat":55.714702,"long":37.885006,"timezone":"+03:00","cityName":"Москва","regionKladr":"7700000000000","cityKladr":"7700000000000","buCode":9,"buName":"Россия","availableFeatures":{"ordersV2":true,"rdStock":true,"isWave":true}},{"id":46,"name":"Казань-2 (Солнечный)","address":"г. Казань, Оренбургский тракт, дом 174","phone":"+7(843)231-80-30","regionId":1448,"regionName":"Казань","lat":55.723435,"long":49.196093,"timezone":"+03:00","cityName":"Казань","regionKladr":"1600000000000","cityKladr":"1600000100000","buCode":9,"buName":"Россия","availableFeatures":{"lsrm":true,"em":true,"ordersV2":true,"isWave":true}},{"id":47,"name":"Тула","address":"Тульская область, с.Осиновая Гора, ул.Аркадия Шипунова, д. 5","phone":"+7(487)225-27-88","regionId":3258,"regionName":"Тула","lat":54.17837,"long":37.649813,"timezone":"+03:00","cityName":"Тула","regionKladr":"7100000000000","cityKladr":"7100000100000","buCode":9,"buName":"Россия","availableFeatures":{"lsrm":true,"em":true,"ordersV2":true,"isWave":true}},{"id":48,"name":"Пенза","address":"г.Пенза, проспект Строителей, д.1Л","phone":"+7(841)221-05-25","regionId":3257,"regionName":"Пенза","lat":53.222369,"long":44.950452,"timezone":"+03:00","cityName":"Пенза","regionKladr":"5800000000000","cityKladr":"5800000100000","buCode":9,"buName":"Россия","availableFeatures":{"lsrm":true,"em":true,"ordersV2":true,"isWave":true}},{"id":49,"name":"Люберцы","address":"Московская область, г. Люберцы, Новорязанское шоссе, д. 5/2","phone":"+7(495)139-06-97","regionId":34,"regionName":"Москва и область","lat":55.664577,"long":37.883503,"timezone":"+03:00","cityName":"Люберцы","regionKladr":"5000000000000","cityKladr":"5000005000000","buCode":9,"buName":"Россия","availableFeatures":{"lsrm":true,"em":true,"ordersV2":true,"editDateOfDelivery":true,"isWave":true}},{"id":51,"name":"Киевское шоссе","address":"г. Москва, п. Московский, Киевское шоссе, 24-й км","phone":"+7(495)139-43-23","regionId":34,"regionName":"Москва и область","lat":55.621158,"long":37.389973,"timezone":"+03:00","cityName":"Москва","regionKladr":"5000000000000","cityKladr":"7700000000000","buCode":9,"buName":"Россия","availableFeatures":{"lsrm":true,"em":true,"ordersV2":true,"isWave":true,"isSavePickingPosition":true}},{"id":52,"name":"Ярославль 2","address":"г. Ярославль, поселок Нагорный, улица Дорожная, д. 6 в","phone":"+7(4852)67-12-67","regionId":3372,"regionName":"Ярославль","lat":57.568765,"long":39.841594,"timezone":"+03:00","cityName":"Ярославль","regionKladr":"7600000000000","cityKladr":"7600000100000","buCode":9,"buName":"Россия","availableFeatures":{"lsrm":true,"em":true,"ordersV2":true,"isWave":true}},{"id":53,"name":"Екатеринбург (Металлургов)","address":"г. Екатеринбург, ул.Металлургов, д. 74","phone":"8 (800) 700-00-99","regionId":715,"regionName":"Екатеринбург","lat":56.829153,"long":60.516123,"timezone":"+05:00","cityName":"Екатеринбург","regionKladr":"6600000000000","cityKladr":"6600000100000","buCode":9,"buName":"Россия","availableFeatures":{"ordersV2":true,"isWave":true}},{"id":55,"name":"Кемерово","address":"г. Кемерово, пр. Ленинградский 28 Б","phone":"+7(3842)49-02-26","regionId":2393,"regionName":"Кемерово","lat":55.349608,"long":86.175023,"timezone":"+07:00","cityName":"Кемерово","regionKladr":"4200000000000","cityKladr":"4200000900000","buCode":9,"buName":"Россия","availableFeatures":{"ordersV2":true,"isWave":true}},{"id":56,"name":"Юдино","address":"Московская область, Одинцовский район, с.Юдино, д.55Д","phone":"+7(495)139-24-10","regionId":34,"regionName":"Москва и область","lat":55.658286,"long":37.18392,"timezone":"+03:00","cityName":"Юдино","regionKladr":"5000000000000","cityKladr":"5002200023300","buCode":9,"buName":"Россия","availableFeatures":{"ordersV2":true,"isWave":true}},{"id":57,"name":"Саратов","address":"г. Саратов, ул. Усть-Курдюмская, д. 50","phone":"+7(8452)30-91-50","regionId":3439,"regionName":"Саратов","lat":51.5901671,"long":46.128661,"timezone":"+04:00","cityName":"Саратов","regionKladr":"6400000000000","cityKladr":"6400000100000","buCode":9,"buName":"Россия","availableFeatures":{"ordersV2":true,"isWave":true}},{"id":58,"name":"Ярославль 1","address":"Ярославская обл., Ярославский район, п. Красный Бор, д. 1 А, корп. 1","phone":"+7(4852)67-11-90","regionId":3372,"regionName":"Ярославль","lat":57.638392,"long":39.968528,"timezone":"+03:00","cityName":"Ярославль","regionKladr":"7600000000000","cityKladr":"7600000100000","buCode":9,"buName":"Россия","availableFeatures":{"lsrm":true,"em":true,"ordersV2":true,"isWave":true}},{"id":59,"name":"Кострома","address":"Костромская обл., Костромской р-н, п. Караваево, ш. Красносельское, д. 3","phone":"+7(4942)496-280","regionId":3428,"regionName":"Кострома","lat":57.742271,"long":41.019521,"timezone":"+03:00","cityName":"Кострома","regionKladr":"4400000000000","cityKladr":"4400100100051","buCode":9,"buName":"Россия","availableFeatures":{"lsrm":true,"em":true,"ordersV2":true,"isWave":true}},{"id":62,"name":"Интернет-магазин МСК","address":"Московская область, Домодедовский район, г. Домодедово, Лермонтова ул., 3","phone":"+7(495)139-06-56","regionId":34,"regionName":"Москва и область","lat":55.334706,"long":37.814887,"timezone":"+03:00","cityName":"Домодедово","regionKladr":"5000000000000","cityKladr":"5000000100000","buCode":9,"buName":"Россия","availableFeatures":{"isCIZ":true,"isWave":true}},{"id":65,"name":"Пушкино","address":"г. Пушкино, Ярославское шоссе, 19 км от МКАД","phone":"+7(495)139-06-56","regionId":34,"regionName":"Москва и область","lat":56.015423,"long":37.883114,"timezone":"+03:00","cityName":"Пушкино","regionKladr":"5000000000000","cityKladr":"7700000000000","buCode":9,"buName":"Россия","availableFeatures":{"ordersV2":true,"isWave":true}},{"id":67,"name":"Новосибирск 3 (Родники)","address":"г. Новосибирск, ул. Мясниковой, д.35","phone":"8 (383) 210-56-26","regionId":508,"regionName":"Новосибирск","lat":55.106852,"long":82.930392,"timezone":"+07:00","cityName":"Новосибирск","regionKladr":"5400000000000","cityKladr":"5400000100000","buCode":9,"buName":"Россия","availableFeatures":{"lsrm":true,"em":true,"ordersV2":true,"isWave":true}},{"id":68,"name":"Иркутск","address":"г.Иркутск, ул.Набережная Иркута, д.1","phone":"8 (800) 700-00-99","regionId":5342,"regionName":"Иркутск","lat":52.295528,"long":104.252945,"timezone":"+08:00","cityName":"Иркутск","regionKladr":"3800000000000","cityKladr":"3800000300000","buCode":9,"buName":"Россия","availableFeatures":{"ordersV2":true,"isWave":true}},{"id":69,"name":"Ставрополь","address":"г. Ставрополь, улица Южный Обход, д.1","phone":"8 (800) 700-00-99","regionId":3752,"regionName":"Ставрополь","lat":44.986084,"long":41.968071,"timezone":"+03:00","cityName":"Ставрополь","regionKladr":"2600000000000","cityKladr":"2600000100000","buCode":9,"buName":"Россия","availableFeatures":{"ordersV2":true,"isWave":true}},{"id":70,"name":"Волжский","address":"г. Волжский, проспект им. Ленина, д. 2Ж","phone":"+7(8443)21-08-68","regionId":6349,"regionName":"Волжский","lat":48.814058,"long":44.726226,"timezone":"+04:00","cityName":"Волжский","regionKladr":"3400000000000","cityKladr":"3400000200000","buCode":9,"buName":"Россия","availableFeatures":{"ordersV2":true,"isWave":true}},{"id":71,"name":"Ульяновск Олимпийский","address":"г. Ульяновск, проспект Олимпийский, д.10","phone":"+7(8422)290-190","regionId":3399,"regionName":"Ульяновск","lat":54.292172,"long":48.270374,"timezone":"+04:00","cityName":"Ульяновск","regionKladr":"7300000000000","cityKladr":"7300000100000","buCode":9,"buName":"Россия","availableFeatures":{"ordersV2":true,"isWave":true}},{"id":73,"name":"Курск","address":"г. Курск, ул. Энгельса, д.115Д/1","phone":"8 (800) 700-00-99","regionId":6062,"regionName":"Курск","lat":51.698112,"long":36.155952,"timezone":"+03:00","cityName":"Курск","regionKladr":"4600000000000","cityKladr":"4600000100000","buCode":9,"buName":"Россия","availableFeatures":{"ordersV2":true,"isWave":true}},{"id":74,"name":"Оренбург","address":"г.Оренбург, Нежинское шоссе, д. 2а","phone":"+7 (3532) 54-14-54","regionId":4794,"regionName":"Оренбург","lat":51.775888,"long":55.198406,"timezone":"+05:00","cityName":"Оренбург","regionKladr":"5600000000000","cityKladr":"5600000100000","buCode":9,"buName":"Россия","availableFeatures":{"ordersV2":true,"isWave":true}},{"id":75,"name":"Владивосток","address":"г. Артём, ул. Гагарина, д. 117","phone":"8 (800) 700-00-99","regionId":7138,"regionName":"Владивосток","lat":43.356486,"long":132.073748,"timezone":"+10:00","cityName":"Артём","regionKladr":"2500000000000","cityKladr":"2500000300000","buCode":9,"buName":"Россия","availableFeatures":{"ordersV2":true,"isWave":true}},{"id":77,"name":"Киров","address":"г.Киров, ул.Луганская, 53/1","phone":"+7(8332)205-799","regionId":3429,"regionName":"Киров","lat":58.612906,"long":49.593248,"timezone":"+03:00","cityName":"Киров","regionKladr":"4300000000000","cityKladr":"4001100100000","buCode":9,"buName":"Россия","availableFeatures":{"ordersV2":true,"isWave":true}},{"id":78,"name":"Калининград","address":"г.Калининград, Гурьевский р-н, Приморское кольцо, д.6","phone":"8 (800) 700-00-99","regionId":6048,"regionName":"Калининград","lat":54.774801,"long":20.547001,"timezone":"+02:00","cityName":"Калининград","regionKladr":"3900000000000","cityKladr":"3900000100000","buCode":9,"buName":"Россия","availableFeatures":{"ordersV2":true,"isWave":true}},{"id":79,"name":"Петрозаводск","address":"г.Петрозаводск, Лесной проспект  д 49","phone":"(8142)798565","regionId":5343,"regionName":"Петрозаводск","lat":61.789036,"long":34.359688,"timezone":"+03:00","cityName":"Петрозаводск","regionKladr":"1000000000000","cityKladr":"1000000100000","buCode":9,"buName":"Россия","availableFeatures":{"ordersV2":true,"isWave":true}},{"id":80,"name":"Тольятти","address":"Самарская область, г.Тольятти, Южное шоссе, д.6а","phone":"+7(8482)94-05-70","regionId":3402,"regionName":"Тольятти","lat":53.55068,"long":49.338855,"timezone":"+04:00","cityName":"Тольятти","regionKladr":"6300000000000","cityKladr":"6300000700000","buCode":9,"buName":"Россия","availableFeatures":{"ordersV2":true,"isWave":true}},{"id":81,"name":"Хабаровск","address":"г. Хабаровск, ул. Павла Леонтьевича Морозова, д.86","phone":"+7(4212)410-710","regionId":4124,"regionName":"Хабаровск","lat":48.430417,"long":135.103646,"timezone":"+10:00","cityName":"Хабаровск","regionKladr":"2700000000000","cityKladr":"2700000100000","buCode":9,"buName":"Россия","availableFeatures":{"ordersV2":true,"isWave":true}},{"id":82,"name":"Красноярск 3 (Калинина)","address":"г. Красноярск, ул. Калинина 82","phone":"8 (800) 700-00-99","regionId":539,"regionName":"Красноярск","lat":56.041158,"long":92.78554,"timezone":"+07:00","cityName":"Красноярск","regionKladr":"2400000000000","cityKladr":"2400000100000","buCode":9,"buName":"Россия","availableFeatures":{"ordersV2":true,"isWave":true}},{"id":83,"name":"Архангельск","address":"г.Архангельск, ул. Касаткиной, д.10","phone":"8 (800) 700-00-99","regionId":6063,"regionName":"Архангельск","lat":64.530518,"long":40.594114,"timezone":"+03:00","cityName":"Архангельск","regionKladr":"2900000000000","cityKladr":"2900000100000","buCode":9,"buName":"Россия","availableFeatures":{"ordersV2":true,"isWave":true}},{"id":86,"name":"Троицк","address":"Московская область, г. Троицк, Калужское ш, 42-й км., д. 8","phone":"+7 (495) 139 75 80","regionId":34,"regionName":"Москва и область","lat":55.454471,"long":37.289872,"timezone":"+03:00","cityName":"Троицк","regionKladr":"7700000000000","cityKladr":"7700000500000","buCode":9,"buName":"Россия","availableFeatures":{"ordersV2":true,"isWave":true}},{"id":88,"name":"Омск 2","address":"г.Омск, ул.21-ая Амурская, д.21/2","phone":"7(3812)35-60-20","regionId":509,"regionName":"Омск","lat":55.036833,"long":73.412887,"timezone":"+06:00","cityName":"Омск","regionKladr":"5500000000000","cityKladr":"5500000100000","buCode":9,"buName":"Россия","availableFeatures":{"ordersV2":true,"isWave":true}},{"id":89,"name":"Барнаул Правобережный","address":"г.Барнаул, ул.Правобережный тракт, д.25","phone":"+7(3852)29-62-51","regionId":2397,"regionName":"Барнаул","lat":53.319584,"long":83.818604,"timezone":"+07:00","cityName":"Барнаул","regionKladr":"2200000000000","cityKladr":"2200000100000","buCode":9,"buName":"Россия","availableFeatures":{"ordersV2":true,"isWave":true}},{"id":90,"name":"Белгород","address":"Белгородская область, Белгородский район, в границах ЗАО \"Агрофирма Дубовое\", Торговый центр \"Леруа Мерлен\" (Белгород)","phone":"+7(800)700-00-99","regionId":6725,"regionName":"Белгород","lat":50.552809,"long":36.560856,"timezone":"+03:00","cityName":"Белгород","regionKladr":"3100000000000","cityKladr":"3100000100000","buCode":9,"buName":"Россия","availableFeatures":{"ordersV2":true,"isWave":true}},{"id":91,"name":"Череповец","address":"Вологодская область, г.Череповец, проспект Октябрьский, д.23","phone":"8 (800) 700-00-99","regionId":6516,"regionName":"Череповец","lat":59.102669,"long":37.904826,"timezone":"+03:00","cityName":"Череповец","regionKladr":"3500000000000","cityKladr":"3500000200000","buCode":9,"buName":"Россия","availableFeatures":{"ordersV2":true,"isWave":true}},{"id":92,"name":"Краснодар 3","address":"г. Краснодар, ш. Ближний Западный обход,  д. 5","regionId":505,"regionName":"Краснодар","lat":45.107419,"long":38.952011,"timezone":"+03:00","cityName":"Краснодар","regionKladr":"2300000000000","cityKladr":"2300000100000","buCode":9,"buName":"Россия","availableFeatures":{"ordersV2":true,"isWave":true}},{"id":93,"name":"Иваново","address":"Ивановская область, Ивановский район, Богданихское сельское поселение, д. Дерябиха, 77","regionId":7278,"regionName":"Иваново","lat":56.946636,"long":41.05879,"timezone":"+03:00","cityName":"Иваново","regionKladr":"3700000000000","cityKladr":"3700000100000","buCode":9,"buName":"Россия","availableFeatures":{"lsrm":true,"em":true,"ordersV2":true,"isWave":true}},{"id":94,"name":"Ростов на Дону 3","address":"г. Ростов-на-Дону, ул. Доватора, д. 158","phone":"8 (800) 700-00-99","regionId":504,"regionName":"Ростов-на-Дону","lat":47.238679,"long":39.584838,"timezone":"+03:00","cityName":"Ростов-на-Дону","regionKladr":"6100000000000","cityKladr":"6100000100000","buCode":9,"buName":"Россия","availableFeatures":{"ordersV2":true,"isWave":true}},{"id":109,"name":"Пермь (Космонавтов)","address":"г.Пермь, Космонавтов шоссе, д.164, корп.Б","phone":"8 (800) 700-00-99","regionId":5057,"regionName":"Пермь","lat":57.969564,"long":56.146611,"timezone":"+05:00","cityName":"Пермь","regionKladr":"5900000000000","cityKladr":"5900000100000","buCode":9,"buName":"Россия","availableFeatures":{"ordersV2":true,"isWave":true}},{"id":110,"name":"Тюмень Тобольский Тракт","address":"г. Тюмень, ул. Тобольский тракт, д. 103","phone":"8 (800) 700-00-99","regionId":1443,"regionName":"Тюмень","lat":57.172815,"long":65.678438,"timezone":"+05:00","cityName":"Тюмень","regionKladr":"7200000000000","cityKladr":"7200000100000","buCode":9,"buName":"Россия","availableFeatures":{"ordersV2":true,"isWave":true}},{"id":111,"name":"Воронеж 2","address":"Воронежская обл., Новоусманский р-н, п.Отрадное, Автодорожная зд.11","phone":"8 (800) 700-00-99","regionId":510,"regionName":"Воронеж","lat":51.649846,"long":39.3096,"timezone":"+03:00","cityName":".","regionKladr":"3600000000000","cityKladr":"3601700003500","buCode":9,"buName":"Россия","availableFeatures":{"ordersV2":true,"isWave":true}},{"id":114,"name":"Домодедово","address":"Московская область, г.Домодедово, мкр.Востряково, ул.Заборье, д.130","phone":"8 (800) 700-00-99","regionId":34,"regionName":"Москва и область","lat":55.394925,"long":37.780854,"timezone":"+03:00","cityName":"Москва","regionKladr":"5000000000000","cityKladr":"5000000100000","buCode":9,"buName":"Россия","availableFeatures":{"lsrm":true,"em":true,"ordersV2":true,"isWave":true}},{"id":115,"name":"Ижевск","address":"г. Ижевск, ул. Камбарская, д. 108","phone":"8 (800) 700-00-99","regionId":6609,"regionName":"Ижевск","lat":56.837888,"long":53.307044,"timezone":"+04:00","cityName":"Ижевск","regionKladr":"1800000000000","cityKladr":"1800000100000","buCode":9,"buName":"Россия","availableFeatures":{"ordersV2":true,"isWave":true}},{"id":117,"name":"ЗИЛ","address":"г. Москва, пр-кт Лихачёва, д. 15","phone":"8 (800) 700-00-99","regionId":34,"regionName":"Москва и область","lat":55.699267,"long":37.646027,"timezone":"+03:00","cityName":"Москва","regionKladr":"5000000000000","cityKladr":"7700000000000","buCode":9,"buName":"Россия","availableFeatures":{"ordersV2":true,"rdStock":true,"isWave":true}},{"id":119,"name":"Нижний Новгород","address":"г.Нижний Новгород, Московское шоссе, д.352 К","phone":"8 (800) 700-00-99","regionId":6466,"regionName":"Нижний Новгород","lat":56.308645,"long":43.771355,"timezone":"+03:00","cityName":"Нижний Новгород","regionKladr":"5200000000000","cityKladr":"5200000100000","buCode":9,"buName":"Россия","availableFeatures":{"lsrm":true,"em":true,"ordersV2":true,"isWave":true}},{"id":122,"name":"Истра","address":"Московская область, г.Истра, ул.Московская, стр.62","phone":"8 (800) 700-00-99","regionId":34,"regionName":"Москва и область","lat":55.905649,"long":36.897734,"timezone":"+03:00","cityName":"Истра","regionKladr":"5000000000000","cityKladr":"5000900100000","buCode":9,"buName":"Россия","availableFeatures":{"ordersV2":true,"isWave":true}},{"id":126,"name":"Клин","address":"Московская область, Клин, д. Борозда, д.140, стр.1","phone":"8 (800) 700-00-99","regionId":8232,"regionName":"Клин","lat":56.315403,"long":36.775526,"timezone":"+03:00","cityName":"Клин","regionKladr":"5000000000000","cityKladr":"5001100100051","buCode":9,"buName":"Россия","availableFeatures":{"isWave":true}},{"id":127,"name":"Саранск","address":"Республика Мордовия, г. Саранск, Северо-восточное ш., д. 17","phone":"8 (800) 700-00-99","regionId":6395,"regionName":"Саранск","lat":54.209157,"long":45.248488,"timezone":"+03:00","cityName":"Саранск","regionKladr":"1300000000000","cityKladr":"1300000100000","buCode":9,"buName":"Россия","availableFeatures":{"ordersV2":true,"isWave":true}},{"id":128,"name":"Кемерово 2","address":"г. Кемерово, ул. Карболитовская, д. 16 б","phone":"8 (800) 700-00-99","regionId":2393,"regionName":"Кемерово","lat":55.358898,"long":86.060581,"timezone":"+07:00","cityName":"Кемерово","regionKladr":"4200000000000","cityKladr":"4200000900000","buCode":9,"buName":"Россия","availableFeatures":{"ordersV2":true,"isWave":true}},{"id":134,"name":"СПб Парашютная","address":"г.Санкт-Петербург, ул.Парашютная, д.60В","phone":"8 (800) 700-00-99","regionId":506,"regionName":"Санкт-Петербург","lat":60.038259,"long":30.236286,"timezone":"+03:00","cityName":"Санкт-Петербург","regionKladr":"4700000000000","cityKladr":"7800000000000","buCode":9,"buName":"Россия","availableFeatures":{"ordersV2":true,"isWave":true}},{"id":135,"name":"СПб Московское","address":"г.Санкт-Петербург, п.Шушары, Московское ш., д.14, лит.А","phone":"8 (800) 700-00-99","regionId":506,"regionName":"Санкт-Петербург","lat":59.800096,"long":30.398046,"timezone":"+03:00","cityName":"Санкт-Петербург","regionKladr":"4700000000000","cityKladr":"7800000003900","buCode":9,"buName":"Россия","availableFeatures":{"ordersV2":true,"rdStock":true,"isWave":true}},{"id":136,"name":"СПб Петергофское","address":"г.Санкт-Петербург, Петергофское ш., 96, лит.А","phone":"8 (800) 700-00-99","regionId":506,"regionName":"Санкт-Петербург","lat":59.8519858,"long":30.096108,"timezone":"+03:00","cityName":"Санкт-Петербург","regionKladr":"4700000000000","cityKladr":"7800000003900","buCode":9,"buName":"Россия","availableFeatures":{"ordersV2":true,"isWave":true}},{"id":137,"name":"Спб Таллинское","address":"г. Санкт-Петербург, Таллинское (Старо-Паново) шоссе, д. 163, лит. А.","phone":"8 (800) 700-00-99","regionId":506,"regionName":"Санкт-Петербург","lat":59.805301,"long":30.160055,"timezone":"+03:00","cityName":"Санкт-Петербург","regionKladr":"7800000000000","cityKladr":"7800000000000","buCode":9,"buName":"Россия","availableFeatures":{"ordersV2":true,"isWave":true}},{"id":138,"name":"СПб Уральская","address":"г. Санкт-Петербург, Уральская ул., 20А","phone":"8 (800) 700-00-99","regionId":506,"regionName":"Санкт-Петербург","lat":59.954902,"long":30.245404,"timezone":"+03:00","cityName":"Санкт-Петербург","regionKladr":"7800000000000","cityKladr":"7800000000000","buCode":9,"buName":"Россия","availableFeatures":{"ordersV2":true,"isWave":true}},{"id":139,"name":"Спб ЦИЗ Парнас","address":"г. Санкт-Петербург, 3-й Верхний пер., дом 11, стр. 1","phone":"8 (800) 700-00-99","regionId":506,"regionName":"Санкт-Петербург","lat":60.066702,"long":30.347462,"timezone":"+03:00","cityName":"Санкт-Петербург","regionKladr":"7800000000000","cityKladr":"7800000000000","buCode":9,"buName":"Россия","availableFeatures":{"ordersV2":true,"isCIZ":true,"isWave":true}},{"id":140,"name":"Спб Выборгское","address":"194362, Санкт-Петербург, п. Парголово, Выборгское шоссе 214 к.2","phone":"8 (800) 700-00-99","regionId":506,"regionName":"Санкт-Петербург","lat":60.073366,"long":30.27242,"timezone":"+03:00","cityName":"Санкт-Петербург","regionKladr":"7800000000000","cityKladr":"7800000000000","buCode":9,"buName":"Россия","availableFeatures":{"ordersV2":true,"isWave":true}},{"id":141,"name":"Спб Руставели","address":"г. Санкт-Петербург, ул. Руставели, д. 59, лит.А","phone":"8 (800) 700-00-99","regionId":506,"regionName":"Санкт-Петербург","lat":60.028735,"long":30.433592,"timezone":"+03:00","cityName":"Санкт-Петербург","regionKladr":"7800000000000","cityKladr":"7800000000000","buCode":9,"buName":"Россия","availableFeatures":{"ordersV2":true,"editDateOfGiveaway":true,"deliveryIntegration":true,"isWave":true}},{"id":142,"name":"Калуга","address":"г. Калуга, Грабцевское шоссе, д. 95","phone":"8 (800) 700-00-99","regionId":6607,"regionName":"Калуга","lat":54.551272,"long":36.341791,"timezone":"+03:00","cityName":"Калуга","regionKladr":"4000000000000","cityKladr":"4000000100000","buCode":9,"buName":"Россия","availableFeatures":{"ordersV2":true,"isWave":true}},{"id":143,"name":"Варшавское Шоссе","address":"Московская область, Ленинский район, сельское поселение Булатниковское, Варшавское шоссе, 21-й км, уч. 25ю/5","phone":"8 (800) 700-00-99","regionId":34,"regionName":"Москва и область","lat":55.572101,"long":37.603911,"timezone":"+03:00","cityName":"-","regionKladr":"7700000000000","cityKladr":"7700000000000","buCode":9,"buName":"Россия","availableFeatures":{"lsrm":true,"em":true,"ordersV2":true,"isWave":true}},{"id":147,"name":"Адыгея 2","address":"Республика Адыгея, а. Новая Адыгея, ул. Тургеневское шоссе, 27","regionId":505,"regionName":"Краснодар","lat":45.017687,"long":38.930199,"timezone":"+03:00","cityName":"Краснодар","regionKladr":"0100000000000","cityKladr":"0100500000900","buCode":9,"buName":"Россия","availableFeatures":{"ordersV2":true,"isWave":true}},{"id":150,"name":"Владикавказ","address":"Республика Северная Осетия-Алания, г. Владикавказ, Архонское шоссе, д. 1А","regionId":7011,"regionName":"Северная Осетия - Алания","lat":43.057279,"long":44.63885,"timezone":"+03:00","cityName":"Владикавказ","regionKladr":"1500000000000","cityKladr":"1500000100000","buCode":9,"buName":"Россия","availableFeatures":{"ordersV2":true,"isWave":true}},{"id":153,"name":"Жуковский","address":"Московская область, д. Кулаково, Новорязанское шоссе 37 км, д.2","regionId":34,"regionName":"Жуковский","lat":55.563204,"long":38.055606,"timezone":"+03:00","cityName":"Москва и область","regionKladr":"5000000000000","cityKladr":"5000000500000","buCode":9,"buName":"Россия","availableFeatures":{"ordersV2":true,"isWave":true}},{"id":162,"name":"КОЛУМБУС","address":"г. Москва, ул.Кировоградская, д.13А, ТРЦ Columbus","regionId":34,"regionName":"Москва и область","lat":55.612182,"long":37.607026,"timezone":"+03:00","cityName":"Москва","regionKladr":"7700000000000","cityKladr":"7700000000000","buCode":9,"buName":"Россия","availableFeatures":{"ordersV2":true,"isWave":true}},{"id":165,"name":"Новороссийск","address":"г. Новороссийск, ул. Ленина 7К","regionId":7073,"regionName":"Новороссийск","lat":44.748057,"long":37.730221,"timezone":"+03:00","cityName":"Новороссийск","regionKladr":"2300000000000","cityKladr":"2300000600000","buCode":9,"buName":"Россия","availableFeatures":{"ordersV2":true,"isWave":true}},{"id":171,"name":"ГАГАРИНСКИЙ","address":"г. Москва, ул.Вавилова, дом 3, ТРЦ Гагаринский","regionId":34,"regionName":"Москва и область","lat":55.70735,"long":37.591047,"timezone":"+03:00","cityName":"Москва и область","regionKladr":"7700000000000","cityKladr":"7700000000000","buCode":9,"buName":"Россия","availableFeatures":{"smallFormat":true,"ordersV2":true,"isWave":true}},{"id":176,"name":"Теплый Стан","address":"г. Москва, Новоясеневский проспект, дом 1Г","regionId":34,"regionName":"Москва и область","lat":55.618822,"long":37.508032,"timezone":"+03:00","cityName":"Москва и область","regionKladr":"7700000000000","cityKladr":"7700000000000","buCode":9,"buName":"Россия","availableFeatures":{"smallFormat":true,"ordersV2":true,"isWave":true}},{"id":351,"name":"Елино B2B","address":"Московская обл. Солнечногорский район, Елино д., 21","regionId":10,"regionName":"ПРО ВОСТОК","lat":55.98664630404622,"long":37.27446563936937,"cityName":"Елино","timezone":"+03:00","buCode":9,"buName":"Россия","availableFeatures":{"ordersV2":true,"isWave":true}},{"id":352,"name":"Мытищи B2B","address":"Московская область, город Мытищи, улица Мира, владение №42, строение №1","regionId":34,"regionName":"Москва и область","lat":55.9224,"long":37.7132,"cityName":"Мытищи","timezone":"+03:00","buCode":9,"buName":"Россия","availableFeatures":{"ordersV2":true,"isWave":true}}]
          }
        }
      ]
    },

    {
      "responses": [
        {
          "is": {
            "statusCode": 400,
            "body": "Mock Error"
          }
        }
      ]
    }
  ]
}